[
    {
        "nom": "begles",
        "zipcode": "33",
        "latitude": 44.8,
        "longitude": -0.533333,
        "id": 1
    },
    {
        "nom": "carpentras",
        "zipcode": "84",
        "latitude": 44.05,
        "longitude": 5.05,
        "id": 2
    },
    {
        "nom": "goussainville-95",
        "zipcode": "95",
        "latitude": 49.0167,
        "longitude": 2.46667,
        "id": 3
    },
    {
        "nom": "mont-de-marsan",
        "zipcode": "40",
        "latitude": 43.8833,
        "longitude": -0.5,
        "id": 4
    },
    {
        "nom": "villiers-sur-marne",
        "zipcode": "94",
        "latitude": 48.8333,
        "longitude": 2.55,
        "id": 5
    },
    {
        "nom": "cachan",
        "zipcode": "94",
        "latitude": 48.7833,
        "longitude": 2.33333,
        "id": 6
    },
    {
        "nom": "savigny-le-temple",
        "zipcode": "77",
        "latitude": 48.5667,
        "longitude": 2.58333,
        "id": 7
    },
    {
        "nom": "menton",
        "zipcode": "6",
        "latitude": 43.7833,
        "longitude": 7.5,
        "id": 8
    },
    {
        "nom": "villemomble",
        "zipcode": "93",
        "latitude": 48.8833,
        "longitude": 2.5,
        "id": 9
    },
    {
        "nom": "malakoff",
        "zipcode": "92",
        "latitude": 48.8167,
        "longitude": 2.3,
        "id": 10
    },
    {
        "nom": "lievin",
        "zipcode": "62",
        "latitude": 50.4167,
        "longitude": 2.76667,
        "id": 11
    },
    {
        "nom": "garenne-colombes",
        "zipcode": "92",
        "latitude": 48.9,
        "longitude": 2.25,
        "id": 12
    },
    {
        "nom": "ris-orangis",
        "zipcode": "91",
        "latitude": 48.65,
        "longitude": 2.41667,
        "id": 13
    },
    {
        "nom": "bois-colombes",
        "zipcode": "92",
        "latitude": 48.9167,
        "longitude": 2.26667,
        "id": 14
    },
    {
        "nom": "clichy-sous-bois",
        "zipcode": "93",
        "latitude": 48.9167,
        "longitude": 2.55,
        "id": 15
    },
    {
        "nom": "decines-charpieu",
        "zipcode": "69",
        "latitude": 45.75,
        "longitude": 4.96667,
        "id": 16
    },
    {
        "nom": "saint-cloud",
        "zipcode": "92",
        "latitude": 48.8417,
        "longitude": 2.21667,
        "id": 17
    },
    {
        "nom": "chatou",
        "zipcode": "78",
        "latitude": 48.8833,
        "longitude": 2.15,
        "id": 18
    },
    {
        "nom": "bourgoin-jallieu",
        "zipcode": "38",
        "latitude": 45.5917,
        "longitude": 5.27972,
        "id": 19
    },
    {
        "nom": "perigueux",
        "zipcode": "24",
        "latitude": 45.1833,
        "longitude": 0.716667,
        "id": 20
    },
    {
        "nom": "charenton-le-pont",
        "zipcode": "94",
        "latitude": 48.8167,
        "longitude": 2.41667,
        "id": 21
    },
    {
        "nom": "tournefeuille",
        "zipcode": "31",
        "latitude": 43.5833,
        "longitude": 1.35,
        "id": 22
    },
    {
        "nom": "guyancourt",
        "zipcode": "78",
        "latitude": 48.7667,
        "longitude": 2.06667,
        "id": 23
    },
    {
        "nom": "plessis-robinson",
        "zipcode": "92",
        "latitude": 48.7833,
        "longitude": 2.26667,
        "id": 24
    },
    {
        "nom": "draveil",
        "zipcode": "91",
        "latitude": 48.6833,
        "longitude": 2.41667,
        "id": 25
    },
    {
        "nom": "agde",
        "zipcode": "34",
        "latitude": 43.3167,
        "longitude": 3.46667,
        "id": 26
    },
    {
        "nom": "maubeuge",
        "zipcode": "59",
        "latitude": 50.2833,
        "longitude": 3.96667,
        "id": 27
    },
    {
        "nom": "ermont",
        "zipcode": "95",
        "latitude": 48.9833,
        "longitude": 2.26667,
        "id": 28
    },
    {
        "nom": "sotteville-les-rouen",
        "zipcode": "76",
        "latitude": 49.4167,
        "longitude": 1.1,
        "id": 29
    },
    {
        "nom": "orange",
        "zipcode": "84",
        "latitude": 44.1333,
        "longitude": 4.8,
        "id": 30
    },
    {
        "nom": "villiers-le-bel",
        "zipcode": "95",
        "latitude": 49.0,
        "longitude": 2.38333,
        "id": 31
    },
    {
        "nom": "fresnes-94",
        "zipcode": "94",
        "latitude": 48.75,
        "longitude": 2.31667,
        "id": 32
    },
    {
        "nom": "soissons",
        "zipcode": "2",
        "latitude": 49.3667,
        "longitude": 3.33333,
        "id": 33
    },
    {
        "nom": "yerres",
        "zipcode": "91",
        "latitude": 48.7167,
        "longitude": 2.5,
        "id": 34
    },
    {
        "nom": "saint-etienne-du-rouvray",
        "zipcode": "76",
        "latitude": 49.3833,
        "longitude": 1.1,
        "id": 35
    },
    {
        "nom": "dieppe",
        "zipcode": "76",
        "latitude": 49.9333,
        "longitude": 1.08333,
        "id": 36
    },
    {
        "nom": "saint-sebastien-sur-loire",
        "zipcode": "44",
        "latitude": 47.2167,
        "longitude": -1.5,
        "id": 37
    },
    {
        "nom": "vallauris",
        "zipcode": "6",
        "latitude": 43.5833,
        "longitude": 7.05,
        "id": 38
    },
    {
        "nom": "vanves",
        "zipcode": "92",
        "latitude": 48.8333,
        "longitude": 2.3,
        "id": 39
    },
    {
        "nom": "limeil-brevannes",
        "zipcode": "94",
        "latitude": 48.7333,
        "longitude": 2.48333,
        "id": 40
    },
    {
        "nom": "montfermeil",
        "zipcode": "93",
        "latitude": 48.9,
        "longitude": 2.56667,
        "id": 41
    },
    {
        "nom": "orvault",
        "zipcode": "44",
        "latitude": 47.2667,
        "longitude": -1.61667,
        "id": 42
    },
    {
        "nom": "sucy-en-brie",
        "zipcode": "94",
        "latitude": 48.7667,
        "longitude": 2.53333,
        "id": 43
    },
    {
        "nom": "remire-montjoly",
        "zipcode": "973",
        "latitude": -52.2738,
        "longitude": 4.91396,
        "id": 44
    },
    {
        "nom": "grigny-91",
        "zipcode": "91",
        "latitude": 48.65,
        "longitude": 2.38333,
        "id": 45
    },
    {
        "nom": "lambersart",
        "zipcode": "59",
        "latitude": 50.65,
        "longitude": 3.03333,
        "id": 46
    },
    {
        "nom": "illkirch-graffenstaden",
        "zipcode": "67",
        "latitude": 48.5333,
        "longitude": 7.71667,
        "id": 47
    },
    {
        "nom": "oullins",
        "zipcode": "69",
        "latitude": 45.7167,
        "longitude": 4.8,
        "id": 48
    },
    {
        "nom": "bretigny-sur-orge",
        "zipcode": "91",
        "latitude": 48.6167,
        "longitude": 2.31667,
        "id": 49
    },
    {
        "nom": "sens",
        "zipcode": "89",
        "latitude": 48.1981,
        "longitude": 3.28389,
        "id": 50
    },
    {
        "nom": "taverny",
        "zipcode": "95",
        "latitude": 49.0333,
        "longitude": 2.21667,
        "id": 51
    },
    {
        "nom": "villeparisis",
        "zipcode": "77",
        "latitude": 48.9333,
        "longitude": 2.61667,
        "id": 52
    },
    {
        "nom": "rambouillet",
        "zipcode": "78",
        "latitude": 48.65,
        "longitude": 1.83333,
        "id": 53
    },
    {
        "nom": "cenon",
        "zipcode": "33",
        "latitude": 44.85,
        "longitude": -0.533333,
        "id": 54
    },
    {
        "nom": "sannois",
        "zipcode": "95",
        "latitude": 48.9667,
        "longitude": 2.25,
        "id": 55
    },
    {
        "nom": "cormeilles-en-parisis",
        "zipcode": "95",
        "latitude": 48.9833,
        "longitude": 2.2,
        "id": 56
    },
    {
        "nom": "bussy-saint-georges",
        "zipcode": "77",
        "latitude": 48.85,
        "longitude": 2.7,
        "id": 57
    },
    {
        "nom": "teste-de-buch",
        "zipcode": "33",
        "latitude": 44.6343,
        "longitude": -1.13704,
        "id": 58
    },
    {
        "nom": "etampes",
        "zipcode": "91",
        "latitude": 48.4333,
        "longitude": 2.15,
        "id": 59
    },
    {
        "nom": "blagnac",
        "zipcode": "31",
        "latitude": 43.6333,
        "longitude": 1.4,
        "id": 60
    },
    {
        "nom": "miramas",
        "zipcode": "13",
        "latitude": 43.5833,
        "longitude": 5.0,
        "id": 61
    },
    {
        "nom": "bergerac",
        "zipcode": "24",
        "latitude": 44.85,
        "longitude": 0.483333,
        "id": 62
    },
    {
        "nom": "saumur",
        "zipcode": "49",
        "latitude": 47.2667,
        "longitude": -0.083333,
        "id": 63
    },
    {
        "nom": "lunel",
        "zipcode": "34",
        "latitude": 43.6833,
        "longitude": 4.13333,
        "id": 64
    },
    {
        "nom": "elancourt",
        "zipcode": "78",
        "latitude": 48.7833,
        "longitude": 1.95,
        "id": 65
    },
    {
        "nom": "henin-beaumont",
        "zipcode": "62",
        "latitude": 50.4167,
        "longitude": 2.93333,
        "id": 66
    },
    {
        "nom": "vertou",
        "zipcode": "44",
        "latitude": 47.1667,
        "longitude": -1.48333,
        "id": 67
    },
    {
        "nom": "grand-quevilly",
        "zipcode": "76",
        "latitude": 49.4167,
        "longitude": 1.03333,
        "id": 68
    },
    {
        "nom": "gonesse",
        "zipcode": "95",
        "latitude": 48.9833,
        "longitude": 2.45,
        "id": 69
    },
    {
        "nom": "cavaillon",
        "zipcode": "84",
        "latitude": 43.8375,
        "longitude": 5.03805,
        "id": 70
    },
    {
        "nom": "garde-83",
        "zipcode": "83",
        "latitude": 43.1248,
        "longitude": 6.01056,
        "id": 71
    },
    {
        "nom": "gradignan",
        "zipcode": "33",
        "latitude": 44.7667,
        "longitude": -0.616667,
        "id": 72
    },
    {
        "nom": "aurillac",
        "zipcode": "15",
        "latitude": 44.9167,
        "longitude": 2.45,
        "id": 73
    },
    {
        "nom": "vichy",
        "zipcode": "3",
        "latitude": 46.1167,
        "longitude": 3.41667,
        "id": 74
    },
    {
        "nom": "biarritz",
        "zipcode": "64",
        "latitude": 43.4833,
        "longitude": -1.56667,
        "id": 75
    },
    {
        "nom": "champs-sur-marne",
        "zipcode": "77",
        "latitude": 48.85,
        "longitude": 2.6,
        "id": 76
    },
    {
        "nom": "armentieres",
        "zipcode": "59",
        "latitude": 50.6833,
        "longitude": 2.88333,
        "id": 77
    },
    {
        "nom": "montbeliard",
        "zipcode": "25",
        "latitude": 47.5167,
        "longitude": 6.8,
        "id": 78
    },
    {
        "nom": "alencon",
        "zipcode": "61",
        "latitude": 48.4333,
        "longitude": 0.083333,
        "id": 79
    },
    {
        "nom": "saintes",
        "zipcode": "17",
        "latitude": 45.75,
        "longitude": -0.633333,
        "id": 80
    },
    {
        "nom": "brunoy",
        "zipcode": "91",
        "latitude": 48.7,
        "longitude": 2.5,
        "id": 81
    },
    {
        "nom": "eaubonne",
        "zipcode": "95",
        "latitude": 49.0,
        "longitude": 2.28333,
        "id": 82
    },
    {
        "nom": "villeneuve-la-garenne",
        "zipcode": "92",
        "latitude": 48.9333,
        "longitude": 2.33333,
        "id": 83
    },
    {
        "nom": "vierzon",
        "zipcode": "18",
        "latitude": 47.2167,
        "longitude": 2.08333,
        "id": 84
    },
    {
        "nom": "muret",
        "zipcode": "31",
        "latitude": 43.4667,
        "longitude": 1.35,
        "id": 85
    },
    {
        "nom": "saint-ouen-l-aumone",
        "zipcode": "95",
        "latitude": 49.05,
        "longitude": 2.11667,
        "id": 86
    },
    {
        "nom": "bethune",
        "zipcode": "62",
        "latitude": 50.5333,
        "longitude": 2.63333,
        "id": 87
    },
    {
        "nom": "castelnau-le-lez",
        "zipcode": "34",
        "latitude": 43.6333,
        "longitude": 3.9,
        "id": 88
    },
    {
        "nom": "fontenay-aux-roses",
        "zipcode": "92",
        "latitude": 48.7833,
        "longitude": 2.28333,
        "id": 89
    },
    {
        "nom": "kourou",
        "zipcode": "973",
        "latitude": -52.6456,
        "longitude": 5.1683,
        "id": 90
    },
    {
        "nom": "libourne",
        "zipcode": "33",
        "latitude": 44.9167,
        "longitude": -0.233333,
        "id": 91
    },
    {
        "nom": "vernon-27",
        "zipcode": "27",
        "latitude": 49.0833,
        "longitude": 1.48333,
        "id": 92
    },
    {
        "nom": "orly",
        "zipcode": "94",
        "latitude": 48.75,
        "longitude": 2.4,
        "id": 93
    },
    {
        "nom": "kremlin-bicetre",
        "zipcode": "94",
        "latitude": 48.8167,
        "longitude": 2.36667,
        "id": 94
    },
    {
        "nom": "eysines",
        "zipcode": "33",
        "latitude": 44.8833,
        "longitude": -0.65,
        "id": 95
    },
    {
        "nom": "bouscat",
        "zipcode": "33",
        "latitude": 44.8667,
        "longitude": -0.616667,
        "id": 96
    },
    {
        "nom": "rodez",
        "zipcode": "12",
        "latitude": 44.3333,
        "longitude": 2.56667,
        "id": 97
    },
    {
        "nom": "laon",
        "zipcode": "2",
        "latitude": 49.5667,
        "longitude": 3.61667,
        "id": 98
    },
    {
        "nom": "valette-du-var",
        "zipcode": "83",
        "latitude": 43.1333,
        "longitude": 5.98333,
        "id": 99
    },
    {
        "nom": "frontignan",
        "zipcode": "34",
        "latitude": 43.45,
        "longitude": 3.75,
        "id": 100
    },
    {
        "nom": "montgeron",
        "zipcode": "91",
        "latitude": 48.7,
        "longitude": 2.45,
        "id": 101
    },
    {
        "nom": "dole",
        "zipcode": "39",
        "latitude": 47.1,
        "longitude": 5.5,
        "id": 102
    },
    {
        "nom": "lormont",
        "zipcode": "33",
        "latitude": 44.8667,
        "longitude": -0.533333,
        "id": 103
    },
    {
        "nom": "rochefort-17",
        "zipcode": "17",
        "latitude": 45.9333,
        "longitude": -0.983333,
        "id": 104
    },
    {
        "nom": "maisons-laffitte",
        "zipcode": "78",
        "latitude": 48.95,
        "longitude": 2.15,
        "id": 105
    },
    {
        "nom": "saint-dizier",
        "zipcode": "52",
        "latitude": 48.6333,
        "longitude": 4.95,
        "id": 106
    },
    {
        "nom": "roissy-en-brie",
        "zipcode": "77",
        "latitude": 48.8,
        "longitude": 2.65,
        "id": 107
    },
    {
        "nom": "coueron",
        "zipcode": "44",
        "latitude": 47.2167,
        "longitude": -1.73333,
        "id": 108
    },
    {
        "nom": "auch",
        "zipcode": "32",
        "latitude": 43.65,
        "longitude": 0.583333,
        "id": 109
    },
    {
        "nom": "lanester",
        "zipcode": "56",
        "latitude": 47.75,
        "longitude": -3.35,
        "id": 110
    },
    {
        "nom": "loos",
        "zipcode": "59",
        "latitude": 50.6167,
        "longitude": 3.01667,
        "id": 111
    },
    {
        "nom": "manosque",
        "zipcode": "4",
        "latitude": 43.8333,
        "longitude": 5.78333,
        "id": 112
    },
    {
        "nom": "fontaine-38",
        "zipcode": "38",
        "latitude": 45.1833,
        "longitude": 5.66667,
        "id": 113
    },
    {
        "nom": "olivet-45",
        "zipcode": "45",
        "latitude": 47.8667,
        "longitude": 1.9,
        "id": 114
    },
    {
        "nom": "dammarie-les-lys",
        "zipcode": "77",
        "latitude": 48.5153,
        "longitude": 2.63445,
        "id": 115
    },
    {
        "nom": "velizy-villacoublay",
        "zipcode": "78",
        "latitude": 48.8,
        "longitude": 2.18333,
        "id": 116
    },
    {
        "nom": "saint-louis-68",
        "zipcode": "68",
        "latitude": 47.5833,
        "longitude": 7.56667,
        "id": 117
    },
    {
        "nom": "tassin-la-demi-lune",
        "zipcode": "69",
        "latitude": 45.7667,
        "longitude": 4.78333,
        "id": 118
    },
    {
        "nom": "sevres",
        "zipcode": "92",
        "latitude": 48.8167,
        "longitude": 2.2,
        "id": 119
    },
    {
        "nom": "montigny-les-cormeilles",
        "zipcode": "95",
        "latitude": 48.9833,
        "longitude": 2.18333,
        "id": 120
    },
    {
        "nom": "abbeville",
        "zipcode": "80",
        "latitude": 50.1,
        "longitude": 1.83333,
        "id": 121
    },
    {
        "nom": "deuil-la-barre",
        "zipcode": "95",
        "latitude": 48.9833,
        "longitude": 2.33333,
        "id": 122
    },
    {
        "nom": "challans",
        "zipcode": "85",
        "latitude": 46.85,
        "longitude": -1.88333,
        "id": 123
    },
    {
        "nom": "madeleine",
        "zipcode": "59",
        "latitude": 50.65,
        "longitude": 3.06667,
        "id": 124
    },
    {
        "nom": "torcy-77",
        "zipcode": "77",
        "latitude": 48.85,
        "longitude": 2.65,
        "id": 125
    },
    {
        "nom": "gujan-mestras",
        "zipcode": "33",
        "latitude": 44.6333,
        "longitude": -1.06667,
        "id": 126
    },
    {
        "nom": "gif-sur-yvette",
        "zipcode": "91",
        "latitude": 48.6833,
        "longitude": 2.13333,
        "id": 127
    },
    {
        "nom": "oyonnax",
        "zipcode": "1",
        "latitude": 46.25,
        "longitude": 5.66667,
        "id": 128
    },
    {
        "nom": "montereau-fault-yonne",
        "zipcode": "77",
        "latitude": 48.3833,
        "longitude": 2.95,
        "id": 129
    },
    {
        "nom": "combs-la-ville",
        "zipcode": "77",
        "latitude": 48.6667,
        "longitude": 2.56667,
        "id": 130
    },
    {
        "nom": "herouville-saint-clair",
        "zipcode": "14",
        "latitude": 49.2,
        "longitude": -0.316667,
        "id": 131
    },
    {
        "nom": "epernay",
        "zipcode": "51",
        "latitude": 49.05,
        "longitude": 3.95,
        "id": 132
    },
    {
        "nom": "montmorency",
        "zipcode": "95",
        "latitude": 49.0,
        "longitude": 2.33333,
        "id": 133
    },
    {
        "nom": "sainte-foy-les-lyon",
        "zipcode": "69",
        "latitude": 45.7333,
        "longitude": 4.8,
        "id": 134
    },
    {
        "nom": "montigny-les-metz",
        "zipcode": "57",
        "latitude": 49.1,
        "longitude": 6.15,
        "id": 135
    },
    {
        "nom": "bruay-la-buissiere",
        "zipcode": "62",
        "latitude": 50.4812,
        "longitude": 2.54778,
        "id": 136
    },
    {
        "nom": "petit-quevilly",
        "zipcode": "76",
        "latitude": 49.4333,
        "longitude": 1.03333,
        "id": 137
    },
    {
        "nom": "millau",
        "zipcode": "12",
        "latitude": 44.1,
        "longitude": 3.08333,
        "id": 138
    },
    {
        "nom": "saint-jean-de-braye",
        "zipcode": "45",
        "latitude": 47.9,
        "longitude": 1.96667,
        "id": 139
    },
    {
        "nom": "chaumont-52",
        "zipcode": "52",
        "latitude": 48.1167,
        "longitude": 5.13333,
        "id": 140
    },
    {
        "nom": "villeneuve-sur-lot",
        "zipcode": "47",
        "latitude": 44.4,
        "longitude": 0.716667,
        "id": 141
    },
    {
        "nom": "mandelieu-la-napoule",
        "zipcode": "6",
        "latitude": 43.55,
        "longitude": 6.93333,
        "id": 142
    },
    {
        "nom": "arcueil",
        "zipcode": "94",
        "latitude": 48.8,
        "longitude": 2.33333,
        "id": 143
    },
    {
        "nom": "hazebrouck",
        "zipcode": "59",
        "latitude": 50.7167,
        "longitude": 2.53333,
        "id": 144
    },
    {
        "nom": "allauch",
        "zipcode": "13",
        "latitude": 43.3333,
        "longitude": 5.48333,
        "id": 145
    },
    {
        "nom": "fleury-les-aubrais",
        "zipcode": "45",
        "latitude": 47.9333,
        "longitude": 1.91667,
        "id": 146
    },
    {
        "nom": "saint-michel-sur-orge",
        "zipcode": "91",
        "latitude": 48.6333,
        "longitude": 2.3,
        "id": 147
    },
    {
        "nom": "neuilly-plaisance",
        "zipcode": "93",
        "latitude": 48.8667,
        "longitude": 2.51667,
        "id": 148
    },
    {
        "nom": "nogent-sur-oise",
        "zipcode": "60",
        "latitude": 49.2667,
        "longitude": 2.46667,
        "id": 149
    },
    {
        "nom": "mantes-la-ville",
        "zipcode": "78",
        "latitude": 48.9667,
        "longitude": 1.71667,
        "id": 150
    },
    {
        "nom": "acheres-78",
        "zipcode": "78",
        "latitude": 48.9667,
        "longitude": 2.06667,
        "id": 151
    },
    {
        "nom": "dax",
        "zipcode": "40",
        "latitude": 43.7167,
        "longitude": -1.05,
        "id": 152
    },
    {
        "nom": "saint-mande",
        "zipcode": "94",
        "latitude": 48.8333,
        "longitude": 2.41667,
        "id": 153
    },
    {
        "nom": "lagny-sur-marne",
        "zipcode": "77",
        "latitude": 48.8667,
        "longitude": 2.71667,
        "id": 154
    },
    {
        "nom": "gardanne",
        "zipcode": "13",
        "latitude": 43.45,
        "longitude": 5.46667,
        "id": 155
    },
    {
        "nom": "forbach",
        "zipcode": "57",
        "latitude": 49.1833,
        "longitude": 6.9,
        "id": 156
    },
    {
        "nom": "villeneuve-le-roi",
        "zipcode": "94",
        "latitude": 48.7333,
        "longitude": 2.41667,
        "id": 157
    },
    {
        "nom": "saint-cyr-l-ecole",
        "zipcode": "78",
        "latitude": 48.8,
        "longitude": 2.06667,
        "id": 158
    },
    {
        "nom": "saint-genis-laval",
        "zipcode": "69",
        "latitude": 45.6833,
        "longitude": 4.8,
        "id": 159
    },
    {
        "nom": "voiron",
        "zipcode": "38",
        "latitude": 45.3667,
        "longitude": 5.58333,
        "id": 160
    },
    {
        "nom": "saint-gratien-95",
        "zipcode": "95",
        "latitude": 48.9667,
        "longitude": 2.28333,
        "id": 161
    },
    {
        "nom": "wasquehal",
        "zipcode": "59",
        "latitude": 50.6667,
        "longitude": 3.15,
        "id": 162
    },
    {
        "nom": "halluin",
        "zipcode": "59",
        "latitude": 50.7833,
        "longitude": 3.13333,
        "id": 163
    },
    {
        "nom": "bourg-la-reine",
        "zipcode": "92",
        "latitude": 48.775,
        "longitude": 2.31667,
        "id": 164
    },
    {
        "nom": "morsang-sur-orge",
        "zipcode": "91",
        "latitude": 48.6667,
        "longitude": 2.35,
        "id": 165
    },
    {
        "nom": "croix-59",
        "zipcode": "59",
        "latitude": 50.6667,
        "longitude": 3.15,
        "id": 166
    },
    {
        "nom": "coudekerque-branche",
        "zipcode": "59",
        "latitude": 51.0333,
        "longitude": 2.4,
        "id": 167
    },
    {
        "nom": "creusot",
        "zipcode": "71",
        "latitude": 46.8,
        "longitude": 4.43333,
        "id": 168
    },
    {
        "nom": "ozoir-la-ferriere",
        "zipcode": "77",
        "latitude": 48.7667,
        "longitude": 2.66667,
        "id": 169
    },
    {
        "nom": "givors",
        "zipcode": "69",
        "latitude": 45.5833,
        "longitude": 4.76667,
        "id": 170
    },
    {
        "nom": "fougeres",
        "zipcode": "35",
        "latitude": 48.35,
        "longitude": -1.2,
        "id": 171
    },
    {
        "nom": "denain",
        "zipcode": "59",
        "latitude": 50.3333,
        "longitude": 3.38333,
        "id": 172
    },
    {
        "nom": "mitry-mory",
        "zipcode": "77",
        "latitude": 48.9833,
        "longitude": 2.61667,
        "id": 173
    },
    {
        "nom": "sarreguemines",
        "zipcode": "57",
        "latitude": 49.1,
        "longitude": 7.05,
        "id": 174
    },
    {
        "nom": "longjumeau",
        "zipcode": "91",
        "latitude": 48.7,
        "longitude": 2.3,
        "id": 175
    },
    {
        "nom": "concarneau",
        "zipcode": "29",
        "latitude": 47.8667,
        "longitude": -3.91667,
        "id": 176
    },
    {
        "nom": "carquefou",
        "zipcode": "44",
        "latitude": 47.3,
        "longitude": -1.5,
        "id": 177
    },
    {
        "nom": "sceaux-92",
        "zipcode": "92",
        "latitude": 48.7833,
        "longitude": 2.28333,
        "id": 178
    },
    {
        "nom": "celle-saint-cloud",
        "zipcode": "78",
        "latitude": 48.85,
        "longitude": 2.15,
        "id": 179
    },
    {
        "nom": "joinville-le-pont",
        "zipcode": "94",
        "latitude": 48.8167,
        "longitude": 2.46667,
        "id": 180
    },
    {
        "nom": "bouguenais",
        "zipcode": "44",
        "latitude": 47.1833,
        "longitude": -1.61667,
        "id": 181
    },
    {
        "nom": "lannion",
        "zipcode": "22",
        "latitude": 48.7333,
        "longitude": -3.46667,
        "id": 182
    },
    {
        "nom": "cugnaux",
        "zipcode": "31",
        "latitude": 43.5333,
        "longitude": 1.36667,
        "id": 183
    },
    {
        "nom": "chapelle-sur-erdre",
        "zipcode": "44",
        "latitude": 47.3,
        "longitude": -1.55,
        "id": 184
    },
    {
        "nom": "grande-synthe",
        "zipcode": "59",
        "latitude": 51.0167,
        "longitude": 2.28333,
        "id": 185
    },
    {
        "nom": "chevilly-larue",
        "zipcode": "94",
        "latitude": 48.7667,
        "longitude": 2.35,
        "id": 186
    },
    {
        "nom": "lingolsheim",
        "zipcode": "67",
        "latitude": 48.5667,
        "longitude": 7.68333,
        "id": 187
    },
    {
        "nom": "plessis-trevise",
        "zipcode": "94",
        "latitude": 48.8167,
        "longitude": 2.56667,
        "id": 188
    },
    {
        "nom": "bruges",
        "zipcode": "33",
        "latitude": 44.8833,
        "longitude": -0.616667,
        "id": 189
    },
    {
        "nom": "mee-sur-seine",
        "zipcode": "77",
        "latitude": 48.5333,
        "longitude": 2.63333,
        "id": 190
    },
    {
        "nom": "cournon-d-auvergne",
        "zipcode": "63",
        "latitude": 45.75,
        "longitude": 3.21667,
        "id": 191
    },
    {
        "nom": "cahors",
        "zipcode": "46",
        "latitude": 44.4333,
        "longitude": 1.43333,
        "id": 192
    },
    {
        "nom": "mont-saint-aignan",
        "zipcode": "76",
        "latitude": 49.4667,
        "longitude": 1.08333,
        "id": 193
    },
    {
        "nom": "beaune",
        "zipcode": "21",
        "latitude": 47.0333,
        "longitude": 4.83333,
        "id": 194
    }
]